[{"name": "VMG257", "accomodation": "Clubhuis", "street": "Strokelweg", "housenumber": 6, "housenumber_addition": null, "postcode": "3847 LR", "city": "Harderwijk", "lat": "52.32511", "long": "5.63626", "photo_assignment_points": 54, "area": "Alpha"}, {"name": "Scouting Bennekom", "accomodation": "Clubgebouw", "street": "Selterskampweg", "housenumber": 68, "housenumber_addition": null, "postcode": "6721 AV", "city": "Bennekom", "lat": "52.00998", "long": "5.68641", "photo_assignment_points": 18, "area": "Foxtrot"}, {"name": "Sw3lbp", "accomodation": "Blokhut", "street": "Jachtlaan", "housenumber": 4, "housenumber_addition": null, "postcode": "7313CP", "city": "Apeldoorn", "lat": "52.22569", "long": "5.94302", "photo_assignment_points": 55, "area": "Alpha"}, {"name": "Scouting Graaf van Gelre", "accomodation": "Loods", "street": "Burgemeester Roozeveld van der Venlaan", "housenumber": 13, "housenumber_addition": null, "postcode": "4191 PL", "city": "Geldermalsen", "lat": "51.87770", "long": "5.27141", "photo_assignment_points": 56, "area": "Echo"}, {"name": "Scouting Phoenix Tiel", "accomodation": "blokhut", "street": "De hennepe", "housenumber": 199, "housenumber_addition": null, "postcode": "4003 AD", "city": "Tiel", "lat": "51.89980", "long": "5.42621", "photo_assignment_points": 40, "area": "Echo"}, {"name": "Didambledore", "accomodation": "Gebouw", "street": "Julianastraat", "housenumber": 41, "housenumber_addition": null, "postcode": "6942BB", "city": "Didam", "lat": "51.93854", "long": "6.13214", "photo_assignment_points": 40, "area": "Charlie"}, {"name": "Scouting Bemmel", "accomodation": "Blokhut", "street": "Sportlaan", "housenumber": 1, "housenumber_addition": "F", "postcode": "6681 CD", "city": "Bemmel", "lat": "51.88716", "long": "5.90548", "photo_assignment_points": 39, "area": "Delta"}, {"name": "Scouting Groessen En Scouting Vrienden", "accomodation": "Blokhut", "street": "Sint Isidorusplein", "housenumber": 8, "housenumber_addition": null, "postcode": "6923BD", "city": "Groessen", "lat": "51.93191", "long": "6.03228", "photo_assignment_points": 57, "area": "Charlie"}, {"name": "Ragay Redoz", "accomodation": "Blokhut", "street": "Strokelweg", "housenumber": 4, "housenumber_addition": null, "postcode": "3847LR", "city": "Harderwijk", "lat": "52.32635", "long": "5.63407", "photo_assignment_points": 48, "area": "Alpha"}, {"name": "De Halfbloedjes van Gaandringen op jacht naar de Jotibeker", "accomodation": "Scoutinggebouw", "street": "Hamminkstraat", "housenumber": 21, "housenumber_addition": null, "postcode": "7011HC", "city": "Gaanderen", "lat": "51.93797", "long": "6.34722", "photo_assignment_points": 37, "area": "Charlie"}, {"name": "alexandergroep", "accomodation": "blokhut", "street": "watervalweg", "housenumber": 175, "housenumber_addition": null, "postcode": "3853PS", "city": "ermelo", "lat": "52.28669", "long": "5.59472", "photo_assignment_points": 43, "area": "Alpha"}, {"name": "Scouting Schutgraaf", "accomodation": "Blokhut", "street": "Hannesstraatje", "housenumber": 6, "housenumber_addition": null, "postcode": "6843NV", "city": "Arnhem", "lat": "51.96617", "long": "5.86966", "photo_assignment_points": 51, "area": "Foxtrot"}, {"name": "Scouting Duiven", "accomodation": "Blokhut", "street": "De nieuweling", "housenumber": 3, "housenumber_addition": "De nieuweling", "postcode": "6921 JL", "city": "Duiven", "lat": "51.94399", "long": "6.03233", "photo_assignment_points": 45, "area": "Charlie"}, {"name": "Scouting Roothaangroep", "accomodation": "Clubgebouw", "street": "Koekendaalseweg", "housenumber": 11, "housenumber_addition": null, "postcode": "7004 GH", "city": "Doetinchem", "lat": "51.94916", "long": "6.32091", "photo_assignment_points": 59, "area": "Charlie"}, {"name": "Gustaaf Adolf Groep", "accomodation": "Blokhutten", "street": "Oostloo", "housenumber": 8, "housenumber_addition": null, "postcode": "8084 PK", "city": "'t Harde", "lat": "52.40840", "long": "5.86412", "photo_assignment_points": 47, "area": "Alpha"}, {"name": "ZV de Batavieren", "accomodation": "Blokhut", "street": "Groostalselaan", "housenumber": 13, "housenumber_addition": null, "postcode": "6533KH", "city": "Nijmegen", "lat": "51.80801", "long": "5.84932", "photo_assignment_points": 35, "area": "Delta"}, {"name": "Scouting Amalgama", "accomodation": "Clubgebouw", "street": "Weteringweg", "housenumber": 50, "housenumber_addition": null, "postcode": "6546JZ", "city": "Nijmegen", "lat": "51.83916", "long": "5.78561", "photo_assignment_points": 54, "area": "Echo"}, {"name": "de Rietkampers Don Bosco", "accomodation": "blokhut", "street": "koningstraat", "housenumber": 114, "housenumber_addition": null, "postcode": "6654AH", "city": "Afferden", "lat": "51.88210", "long": "5.61592", "photo_assignment_points": 49, "area": "Echo"}, {"name": "Scouting Woezik", "accomodation": "blokhut", "street": "Oud Woeziksestraat", "housenumber": 3, "housenumber_addition": null, "postcode": "6604KD", "city": "Wijchen", "lat": "51.82515", "long": "5.71737", "photo_assignment_points": 49, "area": "Echo"}, {"name": "Scouting Zetten", "accomodation": "Blokhut", "street": "Piersonstraat", "housenumber": 21, "housenumber_addition": null, "postcode": "6671 CK", "city": "Zetten", "lat": "51.93256", "long": "5.70935", "photo_assignment_points": 53, "area": "Foxtrot"}, {"name": "Stam Jonko Silvolde", "accomodation": "School verzamel gebouw (Lokaal 5)", "street": "Kerkenstraat", "housenumber": 5, "housenumber_addition": null, "postcode": "7064BH", "city": "Silvolde", "lat": "51.91032", "long": "6.38123", "photo_assignment_points": 59, "area": "Charlie"}, {"name": "Rhedense Pioniers", "accomodation": "School", "street": "Arnhemseweg", "housenumber": 30, "housenumber_addition": null, "postcode": "6991DP", "city": "Rheden", "lat": "52.00604", "long": "6.02816", "photo_assignment_points": 52, "area": "Bravo"}, {"name": "Vale Ouwe", "accomodation": "Blokhut", "street": "Lonapark", "housenumber": 10, "housenumber_addition": null, "postcode": "7371EH", "city": "Loenen", "lat": "52.12226", "long": "6.02797", "photo_assignment_points": 37, "area": "Bravo"}, {"name": "Scouting IJsselgroep / de Witte Wieven", "accomodation": "Clubhuis", "street": "Kwekerijweg", "housenumber": 5, "housenumber_addition": null, "postcode": "7213AX", "city": "Gorssel", "lat": "52.19984", "long": "6.21504", "photo_assignment_points": 57, "area": "Bravo"}, {"name": "Scouting Nunspeet", "accomodation": "Clubhuis", "street": "Zandeboslaan", "housenumber": 80, "housenumber_addition": null, "postcode": "8072PP", "city": "Nunspeet", "lat": "52.37617", "long": "5.80661", "photo_assignment_points": 43, "area": "Alpha"}, {"name": "Andr\u00e9 de Thaye", "accomodation": "Blokhut", "street": "Voetuislaan", "housenumber": 41, "housenumber_addition": null, "postcode": "6828TD", "city": "Arnhem", "lat": "51.98140", "long": "5.93373", "photo_assignment_points": 44, "area": "Delta"}, {"name": "Scouting Paul Kruger", "accomodation": "Blokhut", "street": "Sophiaweg", "housenumber": 448, "housenumber_addition": null, "postcode": "6523 NJ", "city": "Nijmegen", "lat": "51.82577", "long": "5.89090", "photo_assignment_points": 55, "area": "Delta"}, {"name": "Scouting Keizer Karel Nijmegen", "accomodation": "Blokhut", "street": "Sophiaweg", "housenumber": 450, "housenumber_addition": null, "postcode": "6523NJ", "city": "Nijmegen", "lat": "51.82511", "long": "5.89009", "photo_assignment_points": 28, "area": "Delta"}, {"name": "Scouting JJB", "accomodation": "Blokhut", "street": "Berghuizerweg", "housenumber": 155, "housenumber_addition": null, "postcode": "7312SN", "city": "Apeldoorn", "lat": "52.19645", "long": "5.92280", "photo_assignment_points": 43, "area": "Alpha"}, {"name": "Velpsche Woudloopers en de Olmen", "accomodation": "Blokhut", "street": "beekhuizenseweg", "housenumber": 73, "housenumber_addition": "a", "postcode": "6881AE", "city": "Velp", "lat": "52.00822", "long": "5.97930", "photo_assignment_points": 0, "area": "Bravo"}, {"name": "H\u00e9l\u00e8ne H. Wilkensgroep (scouting Voorst)", "accomodation": "Clubgebouw", "street": "de Halmen", "housenumber": 1, "housenumber_addition": "A", "postcode": "7383 BG", "city": "Voorst", "lat": "52.18216", "long": "6.13886", "photo_assignment_points": 56, "area": "Bravo"}, {"name": "Subliem Huntingteam", "accomodation": "Troephuis", "street": "Slenterweg", "housenumber": 29, "housenumber_addition": null, "postcode": "6905DP", "city": "Zevenaar", "lat": "51.91571", "long": "6.06603", "photo_assignment_points": 49, "area": "Charlie"}, {"name": "Scouting Titus Brandsma", "accomodation": "Blokhut", "street": "Doornenburg", "housenumber": 530, "housenumber_addition": null, "postcode": "7423 BS", "city": "Deventer", "lat": "52.25066", "long": "6.21243", "photo_assignment_points": 41, "area": "Bravo"}, {"name": "Scouting Dannenburcht", "accomodation": "Blokhut", "street": "Kloosterlaan", "housenumber": 1, "housenumber_addition": "A", "postcode": "6851CA", "city": "Huissen", "lat": "51.93566", "long": "5.94215", "photo_assignment_points": 43, "area": "Delta"}, {"name": "Tarcisius Ede", "accomodation": "Blokhut", "street": "Bosrand", "housenumber": 17, "housenumber_addition": "A", "postcode": "6718ZN", "city": "Ede", "lat": "52.05134", "long": "5.67842", "photo_assignment_points": 41, "area": "Foxtrot"}, {"name": "Scouting Elst", "accomodation": "Blokhut", "street": "De Pas", "housenumber": 4, "housenumber_addition": null, "postcode": "6662BK", "city": "Elst", "lat": "51.90673", "long": "5.84350", "photo_assignment_points": 52, "area": "Delta"}, {"name": "Scouting St. Franciscus", "accomodation": "Blokhut", "street": "Sint Jorispad", "housenumber": 37, "housenumber_addition": null, "postcode": "6603 AM", "city": "Wijchen", "lat": "51.80582", "long": "5.74468", "photo_assignment_points": 35, "area": "Echo"}, {"name": "Karmijngroep Winssen", "accomodation": "Blokhut", "street": "Kennedysingel", "housenumber": 8, "housenumber_addition": "a", "postcode": "6645 AW", "city": "Winssen", "lat": "51.88145", "long": "5.70039", "photo_assignment_points": 50, "area": "Echo"}, {"name": "Scoutinggroep de Markesteen", "accomodation": "Blokhut", "street": "Bovenallee", "housenumber": 3, "housenumber_addition": null, "postcode": "6881 AJ", "city": "Velp", "lat": "52.01597", "long": "5.98432", "photo_assignment_points": 52, "area": "Bravo"}, {"name": "Scouting Saksenheerd", "accomodation": "Blokhut", "street": "Terborgseweg", "housenumber": 16, "housenumber_addition": "b", "postcode": "7084AJ", "city": "Breedenbroek", "lat": "51.87437", "long": "6.46374", "photo_assignment_points": 56, "area": "Charlie"}, {"name": "Stampertjes", "accomodation": "Blokhut", "street": "Lindestraat", "housenumber": 26, "housenumber_addition": null, "postcode": "6823JT", "city": "Arnhem", "lat": "52.00433", "long": "5.94787", "photo_assignment_points": 0, "area": "Bravo"}, {"name": "Ugchelse woudlopers", "accomodation": "Blokhut", "street": "Hulkenstein", "housenumber": 45, "housenumber_addition": null, "postcode": "7339aw", "city": "Ugchelen", "lat": "52.18155", "long": "5.94219", "photo_assignment_points": 37, "area": "Alpha"}, {"name": "De Geuzen", "accomodation": "Blokhut", "street": "Diependalseweg", "housenumber": 3, "housenumber_addition": null, "postcode": "6813GE", "city": "Arnhem", "lat": "51.98778", "long": "5.87624", "photo_assignment_points": 48, "area": "Foxtrot"}, {"name": "Karel de stoute", "accomodation": "Blokhut", "street": "Weezenhof", "housenumber": 9311, "housenumber_addition": null, "postcode": "6536 AE", "city": "Nijmegen", "lat": "51.80173", "long": "5.81795", "photo_assignment_points": 39, "area": "Delta"}, {"name": "Graaf Jan uit Ulft", "accomodation": "Scoutinggebouw", "street": "Bongersstraat", "housenumber": 263, "housenumber_addition": null, "postcode": "7071DZ", "city": "Ulft", "lat": "51.88205", "long": "6.38711", "photo_assignment_points": 53, "area": "Charlie"}, {"name": "Scouting Lido '76", "accomodation": "Blokhut", "street": "Veerpolderstraat", "housenumber": 128, "housenumber_addition": "A", "postcode": "6833BS", "city": "Arnhem", "lat": "51.96831", "long": "5.91752", "photo_assignment_points": 45, "area": "Delta"}, {"name": "Babbeling Bubbling band of Baboons", "accomodation": "Blokhut", "street": "Kerkstraat", "housenumber": 50, "housenumber_addition": null, "postcode": "6551ZZ", "city": "Weurt", "lat": "51.85916", "long": "5.81715", "photo_assignment_points": 47, "area": "Delta"}, {"name": "Expecto Castorum", "accomodation": "blokhut", "street": "Staddijk", "housenumber": 105, "housenumber_addition": null, "postcode": "6537 TW", "city": "Nijmegen", "lat": "51.80905", "long": "5.78971", "photo_assignment_points": 51, "area": "Echo"}, {"name": "Order of the Phoxhunt", "accomodation": "blokhut", "street": "Polderweg", "housenumber": 4, "housenumber_addition": null, "postcode": "7327 GX", "city": "Apeldoorn", "lat": "52.18424", "long": "6.00511", "photo_assignment_points": 49, "area": "Bravo"}, {"name": "Isala groep scouting Doesburg", "accomodation": "School", "street": "Forsythiastraat", "housenumber": 1, "housenumber_addition": null, "postcode": "6982 BA", "city": "Doesburg", "lat": "52.00796", "long": "6.14605", "photo_assignment_points": 34, "area": "Charlie"}, {"name": "Hunting Pegasus", "accomodation": "Blokhut", "street": "De Beemd", "housenumber": 1, "housenumber_addition": null, "postcode": "6883DA", "city": "Velp", "lat": "51.98716", "long": "5.99242", "photo_assignment_points": 42, "area": "Bravo"}, {"name": "Scouting Valburg", "accomodation": "blokhut", "street": "Reethsestraat", "housenumber": 25, "housenumber_addition": null, "postcode": "6675 CE", "city": "Valburg", "lat": "51.90653", "long": "5.79337", "photo_assignment_points": 50, "area": "Foxtrot"}, {"name": "Scouting Hamaland", "accomodation": "Blokhut", "street": "Keppelseweg", "housenumber": 249, "housenumber_addition": null, "postcode": "7008 BB", "city": "Doetichem", "lat": "51.97642", "long": "6.26741", "photo_assignment_points": 36, "area": "Charlie"}, {"name": "Sint Stanislaus", "accomodation": "Blokhut", "street": "Steenovenslaan", "housenumber": 20, "housenumber_addition": null, "postcode": "4101 AM", "city": "Culemborg", "lat": "51.95984", "long": "5.21666", "photo_assignment_points": 55, "area": "Echo"}, {"name": "Christoforus Arnhem", "accomodation": "Blokhut", "street": "Monnikesteeg", "housenumber": 4, "housenumber_addition": null, "postcode": "6823 AB", "city": "Arnhem", "lat": "51.99605", "long": "5.93162", "photo_assignment_points": 50, "area": "Delta"}, {"name": "N.S Rambonnet", "accomodation": "clubhuis", "street": "J.P. Broekhovenstraat", "housenumber": 40, "housenumber_addition": null, "postcode": "8081 PD", "city": "Elburg", "lat": "52.45985", "long": "5.82107", "photo_assignment_points": 0, "area": "Alpha"}, {"name": "Scouting Grave & Boxmeer", "accomodation": "Groot tuinhuisje", "street": "Overasseltseweg", "housenumber": 4, "housenumber_addition": "B", "postcode": "6582 BL", "city": "Heumen", "lat": "51.76532", "long": "5.82940", "photo_assignment_points": 53, "area": "Delta"}, {"name": "Scouting Jan Hilgers", "accomodation": "gebouw", "street": "Dwarsweg", "housenumber": 1, "housenumber_addition": null, "postcode": "6715AT", "city": "Ede", "lat": "52.04172", "long": "5.61968", "photo_assignment_points": 39, "area": "Foxtrot"}, {"name": "Scouting Kontiki", "accomodation": "Clubhuis", "street": "Garderenseweg", "housenumber": 144, "housenumber_addition": "b", "postcode": "3881nc", "city": "Putten", "lat": "52.24456", "long": "5.63989", "photo_assignment_points": 33, "area": "Alpha"}, {"name": "Scouting Langenberggroep Ede", "accomodation": "Blokhut", "street": "Buurtmeesterweg", "housenumber": 27, "housenumber_addition": null, "postcode": "6711HL", "city": "Ede", "lat": "52.04036", "long": "5.69079", "photo_assignment_points": 52, "area": "Foxtrot"}, {"name": "Scouting de Paulus Dreumel", "accomodation": "Scouting gebouw", "street": "Paulus", "housenumber": 1, "housenumber_addition": null, "postcode": "6621cb", "city": "Dreumel", "lat": "51.84862", "long": "5.43233", "photo_assignment_points": 52, "area": "Echo"}, {"name": "Scouting Nijkerk", "accomodation": "Clubhuis", "street": "Bunschoterweg", "housenumber": 29, "housenumber_addition": "B", "postcode": "3861 PD", "city": "Nijkerk", "lat": "52.22540", "long": "5.45895", "photo_assignment_points": 8, "area": "Alpha"}, {"name": "Klaas Kittengroep", "accomodation": "Blokhut", "street": "Sterreschans", "housenumber": 2, "housenumber_addition": null, "postcode": "6686 MV", "city": "Doornenburg", "lat": "51.89007", "long": "6.02150", "photo_assignment_points": 33, "area": "Charlie"}, {"name": "Scouting Beuningen '76 & Scouting Langenboom", "accomodation": "Blokhut", "street": "Reekstraat", "housenumber": 13, "housenumber_addition": "A", "postcode": "6551 DR", "city": "Weurt", "lat": "51.85359", "long": "5.78219", "photo_assignment_points": 50, "area": "Echo"}, {"name": "Irmin-Taweb", "accomodation": "Clubshuis", "street": "Kalkoenweg", "housenumber": 23, "housenumber_addition": null, "postcode": "3851 SB", "city": "Ermelo", "lat": "52.31528", "long": "5.62232", "photo_assignment_points": 40, "area": "Alpha"}, {"name": "Scoutinggroep Sint Joris", "accomodation": "Blokhut", "street": "Lindeboomweg", "housenumber": 6, "housenumber_addition": "b", "postcode": "7213 LS", "city": "Gorssel", "lat": "52.18728", "long": "6.22437", "photo_assignment_points": 35, "area": "Bravo"}, {"name": "KaLiG", "accomodation": "Blokhut", "street": "De Wolflaan", "housenumber": 25, "housenumber_addition": null, "postcode": "6815 HJ", "city": "Arnhem", "lat": "52.00570", "long": "5.89791", "photo_assignment_points": 51, "area": "Foxtrot"}, {"name": "Cookiemonsters", "accomodation": "Blokhut ik", "street": "Vordenseweg", "housenumber": 13, "housenumber_addition": null, "postcode": "7231 PA", "city": "Warnsveld", "lat": "52.13528", "long": "6.25699", "photo_assignment_points": 26, "area": "Bravo"}, {"name": "Scouting Lunteren", "accomodation": "Troephuis", "street": "Hessenweg", "housenumber": 77, "housenumber_addition": null, "postcode": "6741JP", "city": "Lunteren", "lat": "52.09155", "long": "5.65102", "photo_assignment_points": 26, "area": "Foxtrot"}, {"name": "scoutinggroep de Zwervers", "accomodation": "Honk", "street": "zandheuvelweg", "housenumber": 2, "housenumber_addition": "a", "postcode": "3904MD", "city": "veenendaal", "lat": "52.01533", "long": "5.53599", "photo_assignment_points": 28, "area": "Foxtrot"}, {"name": "Scouting de Woutergroep", "accomodation": "Blokhut", "street": "Kweldam", "housenumber": 1, "housenumber_addition": "A", "postcode": "6653CB", "city": "Deest", "lat": "51.88908", "long": "5.66022", "photo_assignment_points": 32, "area": "Echo"}, {"name": "Scouting Paulus & Petrus Donders", "accomodation": "Blokhut", "street": "Egerlaan", "housenumber": 7, "housenumber_addition": null, "postcode": "7334 AD", "city": "Apeldoorn", "lat": "52.18492", "long": "5.96046", "photo_assignment_points": 42, "area": "Alpha"}]